Name,State,Type,Description,Latitude,Longitude
Hampi Monuments,Karnataka,Heritage Site,"UNESCO World Heritage site, Vijayanagara Empire",15.335,76.46
Ajanta Caves,Maharashtra,Rock-cut Caves,Ancient Buddhist caves with paintings,20.552,75.7033
Sanchi Stupa,Madhya Pradesh,Buddhist Monument,One of the oldest stone structures in India,23.485,77.7378
"Sun Temple, Konark",Odisha,Temple,13th-century Sun Temple shaped like a chariot,19.887,86.0942
Chola Temples,Tamil Nadu,Temple,"Built during Chola dynasty, UNESCO site",10.782,79.1306
